{
  "cities": [
    {
      "name": "Jobar",
      "lat": 33.51666,
      "lon": 36.31667
    },
    {
      "name": "Daraya",
      "lat": 33.45835,
      "lon": 36.23256
    },
    {
      "name": "Jaramana",
      "lat": 33.48333,
      "lon": 36.34999
    },
    {
      "name": "Old Damascus",
      "lat": 33.50944,
      "lon": 36.30917
    },
    {
      "name": "Afif",
      "lat": 33.52556,
      "lon": 36.28528
    }
  ]
}

